City_ID,City,Lat,Lng,Max Temp,Humidity,Cloudiness,Wind Speed,Country,Date
0,malkapur,20.8833,76.2,83.62,77,100,15.7,IN,1690433618
1,ust'-ilimsk,58.0006,102.6619,82.04,42,59,4.16,RU,1690433618
2,adamstown,-25.066,-130.1015,67.1,60,28,8.66,PN,1690433618
3,salym,60.0625,71.4789,72.7,60,33,6.64,RU,1690433618
4,rongelap,11.1635,166.8941,83.39,76,100,17.74,MH,1690433618
5,grytviken,-54.2811,-36.5092,33.76,99,100,12.71,GS,1690433619
6,port-aux-francais,-49.35,70.2167,40.3,79,83,34.23,TF,1690433619
7,broken hill,-31.95,141.4333,68.65,31,31,17.63,AU,1690433619
8,wailua homesteads,22.0669,-159.378,82.83,80,0,13.8,US,1690433619
9,keflavik,64.0049,-22.5624,46.83,93,0,5.75,IS,1690433471
10,guamal,9.1433,-74.2238,75.16,94,98,2.75,CO,1690433527
11,noshiro,40.2039,140.0242,86.83,74,20,8.32,JP,1690433620
12,kachug,53.9606,105.8817,77.36,43,99,9.06,RU,1690433620
13,duluth,46.7833,-92.1066,69.06,87,75,6.91,US,1690433615
14,port lincoln,-34.7333,135.8667,63.73,65,97,17.2,AU,1690433621
15,port mathurin,-19.6833,63.4167,74.41,80,32,17.05,MU,1690433621
16,ugoofaaru,5.6667,73.0,82.72,70,100,2.13,MV,1690433621
17,college,64.8569,-147.8028,84.58,57,75,0.0,US,1690433621
18,longyearbyen,78.2186,15.6401,51.64,76,40,3.44,SJ,1690433621
19,port alfred,-33.5906,26.891,59.76,86,55,19.57,ZA,1690433551
20,edinburgh of the seven seas,-37.0676,-12.3116,51.28,55,71,20.96,SH,1690433622
21,avarua,-21.2078,-159.775,69.85,83,20,3.44,CK,1690433622
22,kalengwa,-13.4659,25.0027,49.68,73,0,5.08,ZM,1690433622
23,bethel,41.3712,-73.414,76.5,77,0,9.22,US,1690433622
24,stanley,54.868,-1.6985,57.27,92,100,2.3,GB,1690433622
25,sao gabriel da cachoeira,-0.1303,-67.0892,72.68,95,85,1.25,BR,1690433598
26,santa catalina,9.3337,122.8637,87.78,76,97,13.51,PH,1690433623
27,ushuaia,-54.8,-68.3,31.66,69,75,5.75,AR,1690433611
28,fortuna,40.5982,-124.1573,57.97,94,0,8.05,US,1690433623
29,bredasdorp,-34.5322,20.0403,47.32,90,0,4.61,ZA,1690433623
30,lihue,21.9789,-159.3672,83.44,74,0,13.8,US,1690433559
31,bubaque,11.2833,-15.8333,81.54,81,100,11.97,GW,1690433623
32,waitangi,-43.9535,-176.5597,44.82,54,91,16.37,NZ,1690433623
33,gonabad,34.3529,58.6837,89.67,25,0,0.0,IR,1690433624
34,agat village,13.3886,144.6585,85.14,79,0,13.8,GU,1690433624
35,ramadi,33.4226,43.3058,101.89,11,0,2.06,IQ,1690433624
36,hawaiian paradise park,19.5933,-154.9731,76.03,97,100,0.0,US,1690433624
37,sitka,57.0531,-135.33,60.69,82,100,0.0,US,1690433512
38,fale old settlement,-9.3852,-171.2468,83.43,72,59,16.98,TK,1690433400
39,revda,56.801,59.9303,70.95,62,31,6.67,RU,1690433625
40,ribeira grande,38.5167,-28.7,72.77,96,62,5.99,PT,1690433625
41,tiksi,71.6872,128.8694,45.59,73,54,5.7,RU,1690433625
42,dellys,36.9172,3.9131,76.98,67,0,14.54,DZ,1690433625
43,iqaluit,63.7506,-68.5145,44.33,87,75,2.3,CA,1690433625
44,sisimiut,66.9395,-53.6735,40.15,93,57,8.3,GL,1690433625
45,hauterive,46.0901,3.4459,57.96,89,17,4.25,FR,1690433626
46,kyshtovka,56.555,76.6271,75.24,56,36,3.69,RU,1690433626
47,tura,25.5198,90.2201,84.7,73,99,7.23,IN,1690433626
48,luwuk,-0.9516,122.7875,84.49,68,77,8.84,ID,1690433626
49,puerto natales,-51.7236,-72.4875,28.08,94,100,2.73,CL,1690433626
50,isafjordur,66.0755,-23.124,44.04,88,96,11.59,IS,1690433626
51,petropavlovsk-kamchatsky,53.0452,158.6483,68.59,64,40,15.66,RU,1690433627
52,alice springs,-23.7,133.8833,72.95,53,100,16.11,AU,1690433627
53,lucena,13.9314,121.6172,88.09,66,100,7.34,PH,1690433627
54,turaif,31.6725,38.6637,79.05,24,0,4.61,SA,1690433627
55,new norfolk,-42.7826,147.0587,55.92,47,100,5.01,AU,1690433627
56,mweka,-4.85,21.5667,66.47,50,22,1.48,CD,1690433627
57,olonkinbyen,70.9221,-8.7187,40.42,89,100,9.82,SJ,1690433628
58,punta arenas,-53.15,-70.9167,30.2,82,21,8.34,CL,1690433534
59,papatowai,-46.5619,169.4708,43.83,83,100,18.95,NZ,1690433628
60,port elizabeth,-33.918,25.5701,57.49,82,0,14.97,ZA,1690433528
61,puerto baquerizo moreno,-0.9,-89.6,74.95,81,94,13.4,EC,1690433628
62,thompson,55.7435,-97.8558,53.76,100,100,4.61,CA,1690433628
63,constantia,44.1833,28.65,68.7,87,99,15.3,RO,1690433628
64,invercargill,-46.4,168.35,45.27,75,99,13.89,NZ,1690433629
65,rosswein,51.0667,13.1833,57.18,95,31,9.24,DE,1690433629
66,nova sintra,14.8667,-24.7167,73.33,85,77,15.52,CV,1690433566
67,nanao,37.05,136.9667,95.29,59,1,4.41,JP,1690433629
68,tadine,-21.55,167.8833,69.44,58,60,16.49,NC,1690433629
69,blackmans bay,-43.0167,147.3167,54.73,72,100,5.08,AU,1690433629
70,watseka,40.7762,-87.7364,78.98,91,11,1.99,US,1690433630
71,nar'yan-mar,67.6713,53.087,69.4,58,89,5.48,RU,1690433589
72,brookings,44.3114,-96.7984,82.4,77,0,11.5,US,1690433630
73,badger,64.8,-147.5333,84.51,58,0,0.0,US,1690433630
74,tocopilla,-22.092,-70.1979,62.38,74,47,4.99,CL,1690433630
75,riberalta,-10.9833,-66.1,72.45,57,22,2.3,BO,1690433630
76,minas de marcona,-15.2119,-75.1103,53.65,88,43,10.51,PE,1690433630
77,georgetown,5.4112,100.3354,89.53,79,20,8.05,MY,1690433631
78,kruisfontein,-34.0033,24.7314,49.23,87,43,6.76,ZA,1690433631
79,uniara,26.15,75.2167,86.58,68,100,6.98,IN,1690433631
80,tongouson,5.0214,120.1328,83.46,80,83,20.13,PH,1690433631
81,laguna,38.421,-121.4238,79.54,54,0,8.05,US,1690433631
82,tindouf,27.6711,-8.1474,73.85,33,0,19.57,DZ,1690433622
83,margaret river,-33.95,115.0667,56.53,69,99,13.15,AU,1690433632
84,al hufuf,25.3646,49.5653,91.74,33,73,0.0,SA,1690433632
85,weno,7.4515,151.8468,82.76,76,47,8.63,FM,1690433632
86,spring creek,40.7266,-115.5859,77.31,19,74,3.85,US,1690433632
87,as sulayyil,20.4607,45.5779,89.85,10,63,9.22,SA,1690433632
88,kulhudhuffushi,6.6221,73.07,83.07,69,99,5.37,MV,1690433632
89,smithers,54.7804,-127.1743,61.12,59,40,6.91,CA,1690433633
90,buckeye,33.3703,-112.5838,108.37,29,0,14.97,US,1690433597
91,east london,-33.0153,27.9116,59.94,77,0,10.36,ZA,1690433487
92,jamestown,42.097,-79.2353,74.79,95,40,8.05,US,1690433585
93,puerto ayora,-0.7393,-90.3518,76.55,93,86,5.99,EC,1690433633
94,crucecita,-28.95,-58.9833,48.81,86,87,5.68,AR,1690433633
95,aasiaat,68.7098,-52.8699,36.97,95,28,9.78,GL,1690433634
96,pirawa,24.1551,76.0273,87.42,67,100,9.86,IN,1690433634
97,le grazie di ancona,43.6008,13.5153,68.58,74,24,2.3,IT,1690433634
98,kailua-kona,19.6406,-155.9956,82.36,84,100,9.22,US,1690433500
99,al fqih ben calah,32.5009,-6.6906,67.1,66,0,7.29,MA,1690433634
100,usogorsk,63.4106,48.6872,67.86,56,100,8.41,RU,1690433634
101,sarykemer,43.0,71.5,89.08,15,1,8.7,KZ,1690433634
102,west island,-12.1568,96.8225,78.78,73,75,24.16,CC,1690433535
103,san carlos de bariloche,-41.1456,-71.3082,36.25,87,100,4.61,AR,1690433425
104,bilibino,68.0546,166.4372,52.41,69,100,3.11,RU,1690433635
105,walvis bay,-22.9575,14.5053,53.1,93,100,10.36,NA,1690433635
106,halikko,60.4,23.0833,57.87,96,68,1.01,FI,1690433635
107,rouyn-noranda,48.2398,-79.0288,62.69,100,40,0.0,CA,1690433635
108,ilulissat,69.2167,-51.1,44.62,76,0,4.61,GL,1690433501
109,luderitz,-26.6481,15.1594,54.1,64,0,6.71,NA,1690433621
110,hamilton,39.1834,-84.5333,83.07,75,100,14.97,US,1690433636
111,sinjai,-5.1241,120.253,82.38,69,23,10.87,ID,1690433636
112,saudarkrokur,65.7461,-19.6394,45.3,89,12,4.34,IS,1690433636
113,puerto leguizamo,-0.1934,-74.7819,77.36,76,99,0.49,CO,1690433637
114,lisakovsk,52.5369,62.4936,76.93,49,4,8.32,KZ,1690433637
115,albany,42.6001,-73.9662,74.73,83,100,5.46,US,1690433518
116,oroqen zizhiqi,50.5667,123.7167,66.96,97,100,4.18,CN,1690433637
117,leava,-14.3,-178.1667,79.43,73,88,12.46,WF,1690433638
118,nemuro,43.3236,145.575,68.81,87,97,7.85,JP,1690433638
119,waiuku,-37.25,174.75,55.33,77,76,15.14,NZ,1690433638
120,san luis de la loma,17.2706,-100.8939,80.4,83,70,4.52,MX,1690433638
121,puerto deseado,-47.7503,-65.8938,32.99,70,77,6.55,AR,1690433434
122,conceicao do araguaia,-8.2578,-49.2647,71.2,45,5,3.0,BR,1690433639
123,lewistown,40.5992,-77.5714,77.81,83,0,0.0,US,1690433639
124,tazacorte,28.629,-17.9293,70.77,86,75,9.22,ES,1690433564
125,garoowe,8.4054,48.4845,76.98,57,29,31.21,SO,1690433639
126,lodja,-3.4833,23.4333,70.03,48,67,0.83,CD,1690433639
127,grand falls-windsor,48.9332,-55.6649,65.5,89,14,6.11,CA,1690433640
128,arrifes,37.7667,-25.7,68.25,88,20,8.05,PT,1690433640
129,kodiak,57.79,-152.4072,56.71,82,40,9.22,US,1690433640
130,kismayo,-0.3582,42.5454,77.72,75,98,16.35,SO,1690433640
131,lienz,46.8289,12.769,50.18,88,20,3.06,AT,1690433640
132,nizhnesortymskiy,62.4397,71.7603,66.63,81,99,7.58,RU,1690433350
133,ulladulla,-35.35,150.4667,70.18,31,0,7.34,AU,1690433532
134,talnakh,69.4865,88.3972,81.21,42,45,4.34,RU,1690433641
135,yellowknife,62.456,-114.3525,72.12,37,40,8.05,CA,1690433641
136,bardai,11.65,7.2333,72.32,82,99,11.92,NG,1690433642
137,angaur state,6.906,134.13,79.29,84,100,24.92,PW,1690433642
138,madang,-5.2246,145.7966,86.22,64,34,5.64,PG,1690433642
139,pariaman,-0.619,100.12,87.85,66,81,5.17,ID,1690433643
140,eldorado,-23.7869,-54.2836,63.07,68,42,4.79,BR,1690433643
141,bonthe,7.5264,-12.505,76.01,91,97,5.39,SL,1690433643
142,ezhva,61.8128,50.7283,58.95,100,75,6.71,RU,1690433643
143,enewetak,11.3474,162.3373,83.39,78,100,14.23,MH,1690433644
144,san pedro pochutla,15.7333,-96.4667,78.71,89,83,5.19,MX,1690433644
145,yemetsk,63.4721,41.7941,57.96,99,100,4.07,RU,1690433644
146,saint-joseph,-21.3667,55.6167,71.47,78,80,10.16,RE,1690433645
147,anka,12.1138,5.9243,77.36,79,88,9.51,NG,1690433645
148,san antonio de pale,-1.4014,5.6325,73.06,90,100,11.27,GQ,1690433645
149,hithadhoo,-0.6,73.0833,83.08,78,29,15.32,MV,1690433646
150,malango,-2.9627,119.9001,82.87,51,29,4.5,ID,1690433646
151,hailey,43.5196,-114.3153,68.88,42,0,9.22,US,1690433646
152,saipan,15.1355,145.701,83.1,100,40,11.5,MP,1690433646
153,santa ana,33.7456,-117.8678,87.31,67,20,8.05,US,1690433446
154,vila franca do campo,37.7167,-25.4333,70.21,88,3,5.97,PT,1690433647
155,teguise,29.0605,-13.564,68.22,68,40,11.5,ES,1690433647
156,acapulco de juarez,16.8634,-99.8901,81.61,85,80,6.58,MX,1690433400
157,minot air force base,48.4209,-101.3391,75.38,66,40,11.5,US,1690433647
158,acarau,-2.8856,-40.12,76.8,88,14,14.85,BR,1690433439
159,pallisa,1.145,33.7094,69.08,66,96,3.38,UG,1690433648
160,gao,16.6362,1.637,90.32,40,34,9.1,ML,1690433648
161,nova vicosa,-17.8919,-39.3719,69.69,77,4,3.22,BR,1690433648
162,port hedland,-20.3167,118.5667,82.45,24,26,5.75,AU,1690433649
163,coquimbo,-29.9533,-71.3436,56.41,88,100,3.24,CL,1690433557
164,aragarcas,-15.8975,-52.2508,74.28,40,24,2.35,BR,1690433649
165,gamba,-2.65,10.0,69.04,96,62,5.39,GA,1690433649
166,nhlangano,-27.1167,31.2,48.51,65,0,4.83,SZ,1690433649
167,tabas,33.5959,56.9244,97.48,15,1,1.3,IR,1690433650
168,haiku-pauwela,20.9219,-156.3051,78.82,80,20,24.16,US,1690433561
169,san patricio,28.017,-97.5169,84.85,77,43,12.8,US,1690433650
170,nuuk,64.1835,-51.7216,45.21,87,100,3.44,GL,1690433651
171,chinde,26.8418,88.0763,74.44,77,88,4.5,NP,1690433651
172,butembo,0.15,29.2833,59.32,83,84,2.44,CD,1690433651
173,zhigalovo,54.8097,105.1578,75.63,51,100,6.76,RU,1690433652
174,whitehorse,60.7161,-135.0538,64.02,79,100,4.61,CA,1690433652
175,weifang,36.71,119.1019,94.93,43,11,9.33,CN,1690433652
176,beatrice,40.2681,-96.747,82.49,83,0,3.44,US,1690433652
177,vorgashor,67.5833,63.95,60.33,83,98,5.19,RU,1690433653
178,kununurra,-15.7667,128.7333,82.38,28,7,6.91,AU,1690433602
179,ati,13.2154,18.3353,78.22,74,100,10.63,TD,1690433653
180,qarqaraly,49.4058,75.4742,81.16,32,100,15.79,KZ,1690433653
181,atafu village,-8.5421,-172.5159,83.64,75,96,18.23,TK,1690433548
182,labytnangi,66.6572,66.4183,64.24,89,100,8.28,RU,1690433654
183,lompoc,34.6391,-120.4579,60.94,95,100,10.36,US,1690433644
184,bethalto,38.9092,-90.0407,87.84,74,100,0.0,US,1690433654
185,alanya,36.5438,31.9998,75.33,41,0,6.13,TR,1690433655
186,nasiriyah,31.0521,46.261,105.55,10,1,10.69,IQ,1690433655
187,quellon,-43.1167,-73.6167,46.65,100,100,5.75,CL,1690433655
188,cuyo,10.8525,121.0086,83.48,77,100,24.61,PH,1690433655
189,arraial do cabo,-22.9661,-42.0278,69.73,90,54,21.88,BR,1690433423
190,usinsk,65.9939,57.5281,66.51,72,57,4.18,RU,1690433656
191,xilin hot,43.9667,116.0333,86.18,35,29,5.79,CN,1690433656
192,alofi,-19.0595,-169.9187,71.49,83,97,6.91,NU,1690433625
193,vilyuchinsk,52.9306,158.4028,70.07,85,99,6.31,RU,1690433657
194,barclayville,4.6797,-8.2339,75.02,92,98,4.21,LR,1690433657
195,konstantinovka,49.6167,127.9833,79.74,72,99,13.44,RU,1690433633
196,umm kaddadah,13.6017,26.6876,79.56,64,79,16.08,SD,1690433658
197,lospalos,-8.5186,127.0025,72.68,76,84,9.66,TL,1690433658
198,turpan,42.9333,89.1667,111.76,7,0,7.0,CN,1690433658
199,cockburn town,21.4612,-71.1419,83.08,82,70,21.72,TC,1690433532
200,ola,59.5833,151.2833,62.15,98,100,6.08,RU,1690433584
201,mount pearl,47.5166,-52.7813,64.74,83,100,19.57,CA,1690433659
202,klyuchi,52.2667,79.1667,72.86,48,100,12.55,RU,1690433659
203,kikwit,-5.041,18.8162,72.1,52,10,1.74,CD,1690433659
204,chidambaram,11.4,79.7,88.56,54,94,11.5,IN,1690433659
205,chagoda,59.164,35.3285,58.75,94,76,6.62,RU,1690433660
206,bamboo flat,11.7,92.7167,86.09,79,40,14.97,IN,1690433660
207,fort bragg,35.139,-79.006,81.18,84,0,8.05,US,1690433590
208,lerwick,60.1545,-1.1494,48.2,86,0,2.08,GB,1690433397
209,khvoynaya,58.9,34.5333,58.59,94,85,6.46,RU,1690433661
210,tamandare,-8.7597,-35.1047,74.12,86,67,4.94,BR,1690433661
211,manaure,11.7751,-72.4445,80.08,83,100,11.63,CO,1690433661
212,st. john's,47.5649,-52.7093,65.59,83,100,19.57,CA,1690433662
213,udachny,66.4167,112.4,67.95,42,100,7.63,RU,1690433662
214,beau vallon,-20.4189,57.6953,74.21,88,40,3.44,MU,1690433662
215,hermanus,-34.4187,19.2345,52.65,84,1,7.4,ZA,1690433663
216,crane,31.3974,-102.3501,85.51,31,62,13.4,US,1690433663
217,el alto,-4.2714,-81.2147,68.43,84,28,13.71,PE,1690433664
218,kurumkan,54.3,110.3,72.91,67,100,7.29,RU,1690433664
219,remire-montjoly,4.9167,-52.2667,77.04,94,100,0.0,GF,1690433664
220,saint-pierre,-21.3393,55.4781,72.57,68,93,4.61,RE,1690433664
221,thunder bay,48.4001,-89.3168,64.38,94,20,4.61,CA,1690433518
222,santa cruz,-17.8,-63.1667,67.46,56,75,19.57,BO,1690433501
223,happy valley-goose bay,53.3168,-60.3315,66.51,63,40,6.91,CA,1690433665
224,mata-utu,-13.2816,-176.1745,80.29,76,100,16.89,WF,1690433615
225,colonia,50.9333,6.95,60.3,86,75,8.05,DE,1690433475
226,nurhak,37.9629,37.4202,81.0,18,0,3.44,TR,1690433666
227,cochin,9.9399,76.2602,84.18,74,86,2.35,IN,1690433666
228,bowen,-20.0167,148.2333,72.59,59,83,18.28,AU,1690433666
229,zaozersk,69.4005,32.4476,52.27,91,100,1.86,RU,1690433546
230,ludlow,42.1601,-72.4759,74.46,80,0,8.05,US,1690433667
231,kingston,17.997,-76.7936,81.55,88,75,20.71,JM,1690433489
232,saint-philippe,-21.3585,55.7679,71.19,77,65,11.88,RE,1690433667
233,novodvinsk,64.4165,40.8122,60.24,83,100,2.44,RU,1690433668
234,muroto-misakicho,33.2833,134.15,83.84,72,88,3.04,JP,1690433668
235,caiaponia,-16.9567,-51.8103,69.21,42,72,2.37,BR,1690433538
236,flying fish cove,-10.4217,105.6791,80.28,78,100,14.97,CX,1690433669
237,motueka,-41.1333,173.0167,49.12,64,4,7.34,NZ,1690433669
238,norilsk,69.3535,88.2027,81.43,43,48,3.42,RU,1690433669
239,hasaki,35.7333,140.8333,102.29,71,15,13.06,JP,1690433669
240,guerrero negro,27.9769,-114.0611,69.84,80,2,10.65,MX,1690433670
241,akureyri,65.6835,-18.0878,47.64,83,100,4.27,IS,1690433670
242,puerto aysen,-45.4,-72.7,37.24,99,100,0.94,CL,1690433670
243,la ronge,55.1001,-105.2842,53.85,82,100,10.36,CA,1690433646
244,mejit,10.2753,170.8646,82.6,80,100,16.46,MH,1690433559
245,praia da vitoria,38.7333,-27.0667,73.76,88,20,7.43,PT,1690433671
246,mirnyy,62.5353,113.9611,73.24,46,9,11.01,RU,1690433671
247,medvezh'yegorsk,62.9167,34.4667,64.9,71,91,2.13,RU,1690433671
248,magadan,59.5667,150.8,61.54,97,100,2.91,RU,1690433596
249,katima mulilo,-17.5,24.2667,51.89,69,0,5.77,NA,1690433672
250,inhambane,-23.865,35.3833,60.78,93,20,0.0,MZ,1690433672
251,kattivakkam,13.2167,80.3167,89.69,69,98,19.48,IN,1690433672
252,paita,-5.0892,-81.1144,70.7,81,13,11.23,PE,1690433672
253,ta`u,-14.2336,-169.5144,77.76,76,95,15.3,AS,1690433673
254,al mindak,20.1588,41.2834,78.4,15,77,8.86,SA,1690433673
255,langsa,4.4683,97.9683,92.03,55,94,3.8,ID,1690433673
256,kone,-21.0595,164.8658,72.48,49,1,10.54,NC,1690433674
257,puerto madryn,-42.7692,-65.0385,39.51,70,92,2.75,AR,1690433674
258,taltal,-25.4,-70.4833,59.4,83,50,3.18,CL,1690433674
259,coahuayana de hidalgo,18.7,-103.6583,80.87,84,89,1.97,MX,1690433674
260,chahar burj,34.2448,62.1917,91.45,21,0,21.09,AF,1690433675
261,the pas,53.8251,-101.2541,53.62,94,100,9.22,CA,1690433675
262,afaahiti,-17.75,-149.2833,75.07,83,61,6.55,PF,1690433675
263,tokombere,11.2271,13.4858,74.79,79,89,5.5,NG,1690433675
264,decatur,39.8403,-88.9548,82.45,78,100,8.05,US,1690433378
265,vicuna,-30.0319,-70.7081,62.29,52,100,0.85,CL,1690433676
266,vershino-darasunskiy,52.35,115.5167,66.06,73,86,7.07,RU,1690433676
267,xuddur,4.1213,43.8894,73.96,61,50,21.16,SO,1690433676
268,zemio,5.0314,25.1361,69.24,96,100,2.19,CF,1690433676
269,jaguaruna,-28.615,-49.0256,62.19,86,89,12.37,BR,1690433677
270,utrik,11.2278,169.8474,82.2,81,100,17.29,MH,1690433677
271,plastun,44.7561,136.2939,85.33,52,14,6.73,RU,1690433677
272,carutapera,-1.195,-46.02,76.17,89,31,5.61,BR,1690433598
273,chonchi,-42.6128,-73.8092,46.11,99,100,3.67,CL,1690433678
274,chateaubriant,47.7167,-1.3833,62.67,84,99,11.25,FR,1690433678
275,brampton,43.6834,-79.7663,71.98,95,100,3.44,CA,1690433523
276,kichmengskiy gorodok,59.9816,45.7854,66.11,97,100,6.96,RU,1690433678
277,susuman,62.7833,148.1667,49.05,82,100,4.05,RU,1690433678
278,uturoa,-16.7333,-151.4333,78.39,83,45,9.55,PF,1690433678
279,igarka,67.4667,86.5833,78.46,54,2,8.84,RU,1690433679
280,papao,-17.75,-149.55,76.68,81,34,3.71,PF,1690433679
281,ghadamis,30.1337,9.5007,86.79,32,0,11.1,LY,1690433679
282,juneau,58.3019,-134.4197,60.8,93,75,5.75,US,1690433492
283,puerto armuelles,8.2833,-82.8667,82.09,70,100,3.0,PA,1690433679
284,mahina,-17.5065,-149.489,76.77,88,75,2.3,PF,1690433672
285,trairi,-3.2778,-39.2689,77.34,86,8,11.36,BR,1690433497
286,antofagasta,-23.65,-70.4,63.68,87,62,2.59,CL,1690433680
287,sibolga,1.7427,98.7792,86.11,63,98,4.47,ID,1690433680
288,nishinoomote,30.7333,131.0,81.16,100,75,14.97,JP,1690433680
289,shimoda,34.6667,138.95,91.11,70,38,8.01,JP,1690433680
290,altay,47.8667,88.1167,91.09,17,9,10.09,CN,1690433680
291,berbera,10.4396,45.0143,92.17,38,85,25.59,SO,1690433680
292,medowie,-32.7333,151.8667,69.98,52,0,6.91,AU,1690433681
293,queenstown,-31.8976,26.8753,47.8,86,23,3.91,ZA,1690433681
294,christchurch,-43.5333,172.6333,50.92,52,14,21.85,NZ,1690433453
295,pisco,-13.7,-76.2167,59.05,82,0,4.61,PE,1690433681
296,cloquet,46.7216,-92.4594,69.19,90,0,3.44,US,1690433681
297,banfora,10.6333,-4.7667,75.15,84,68,4.07,BF,1690433681
298,tianpeng,30.9866,103.9393,77.63,86,86,14.61,CN,1690433682
299,constitucion,-35.3333,-72.4167,47.86,79,41,5.75,CL,1690433651
300,barras,-4.2444,-42.2944,68.95,94,7,2.55,BR,1690433682
301,manokwari,-0.8667,134.0833,83.14,74,43,6.58,ID,1690433683
302,kill devil hills,36.0307,-75.676,82.98,83,0,11.5,US,1690433542
303,port shepstone,-30.7414,30.455,66.69,80,12,24.94,ZA,1690433684
304,sarmiento,-45.5882,-69.07,35.13,59,100,4.29,AR,1690433684
305,mount gambier,-37.8333,140.7667,61.29,57,57,10.58,AU,1690433684
306,nikolayevsk-on-amure,53.1406,140.73,83.25,43,99,5.97,RU,1690433684
307,sretensk,52.2453,117.7093,80.38,47,88,6.29,RU,1690433684
308,mildura,-34.2,142.15,67.06,39,19,17.63,AU,1690433684
309,daru,-9.0763,143.2092,78.73,81,57,19.22,PG,1690433685
310,qaqortoq,60.7167,-46.0333,44.46,80,95,7.45,GL,1690433685
311,san mateo del mar,16.2,-95.0,83.44,72,65,23.09,MX,1690433685
312,lebu,-37.6167,-73.65,47.46,86,94,1.7,CL,1690433686
313,necochea,-38.5473,-58.7368,46.45,76,92,12.64,AR,1690433686
314,chelno-vershiny,54.4333,51.1,81.23,43,27,12.97,RU,1690433686
315,borogontsy,62.6683,131.1683,75.07,40,78,4.29,RU,1690433686
316,mazagao,-0.115,-51.2894,77.05,91,41,3.65,BR,1690433687
317,guatrache,-37.6678,-63.5302,40.39,58,100,5.99,AR,1690433687
318,gadzhiyevo,69.2551,33.3362,51.84,92,100,1.36,RU,1690433687
319,sake,-1.5736,29.045,62.19,64,28,1.03,CD,1690433687
320,wuhai,39.6647,106.8122,86.9,34,100,15.03,CN,1690433687
321,zhangye,38.9342,100.4517,92.61,13,51,4.81,CN,1690433688
322,coronel suarez,-37.4547,-61.9334,35.51,82,94,2.19,AR,1690433688
323,anadyr,64.75,177.4833,55.9,76,75,11.18,RU,1690433688
324,port saint john's,-31.6229,29.5448,63.99,70,76,4.54,ZA,1690433688
325,nabire,-3.3667,135.4833,86.79,63,76,5.79,ID,1690433688
326,mossel bay,-34.1831,22.146,49.93,81,16,6.46,ZA,1690433689
327,kuzovatovo,53.5468,47.6866,79.12,52,8,10.96,RU,1690433689
328,san rafael del yuma,18.4299,-68.6739,76.57,83,100,5.21,DO,1690433689
329,idri,27.5,13.2667,83.57,12,0,3.02,LY,1690433689
330,margate,51.3813,1.3862,61.9,95,100,10.0,GB,1690433689
331,dolbeau-mistassini,48.8763,-72.212,72.25,96,100,5.7,CA,1690433689
332,fisterra,42.9049,-9.2629,64.2,82,53,7.2,ES,1690433690
333,dolinsk,47.35,142.8,79.79,55,35,10.13,RU,1690433690
334,heroica caborca,30.7167,-112.15,96.22,37,29,4.83,MX,1690433690
335,krivosheino,57.3431,83.9261,73.71,63,44,3.98,RU,1690433690
336,marsh harbour,26.5412,-77.0636,83.75,72,100,13.8,BS,1690433599
337,krupki,54.3178,29.1358,58.98,89,100,4.76,BY,1690433690
338,floro,61.5996,5.0328,59.07,88,75,8.05,NO,1690433657
339,holualoa,19.6228,-155.9522,78.64,84,100,9.22,US,1690433556
340,nyeri,-0.4201,36.9476,57.06,82,54,3.87,KE,1690433691
341,okha,53.5739,142.9478,61.38,86,100,6.11,RU,1690433691
342,candon,17.1947,120.4517,78.28,94,100,17.52,PH,1690433691
343,ust-nera,64.5667,143.2,58.1,54,95,7.72,RU,1690433691
344,jolo,6.05,121.0167,84.36,74,87,13.4,PH,1690433691
345,sungai penuh,-2.0833,101.3833,81.12,52,45,5.08,ID,1690433692
346,dwarka,22.2394,68.9678,83.23,81,100,17.47,IN,1690433692
347,menaka,15.9182,2.4022,92.39,41,99,13.04,ML,1690433692
348,watsa,3.0372,29.5355,64.53,98,100,0.92,CD,1690433692
349,suntar,62.1444,117.6319,75.81,41,71,9.53,RU,1690433686
350,mermoz boabab,14.7065,-17.4758,79.36,84,75,9.22,SN,1690433692
351,la passe,45.5549,-0.8967,65.98,94,20,6.67,FR,1690433692
352,kerikeri,-35.2268,173.9474,58.91,84,21,3.0,NZ,1690433693
353,glendive,47.1053,-104.7125,80.22,29,0,10.36,US,1690433693
354,san rafael,-34.6177,-68.3301,46.04,51,94,6.42,AR,1690433665
355,powell river,49.8496,-124.5361,68.27,75,13,5.17,CA,1690433440
356,pacific grove,36.6177,-121.9166,59.23,92,100,5.99,US,1690433492
357,springfield,37.2153,-93.2982,83.03,72,0,10.36,US,1690433633
358,inari,68.906,27.0288,55.6,76,93,1.21,FI,1690433694
359,cuatro cienegas de carranza,26.9833,-102.0833,83.7,29,0,5.23,MX,1690433694
360,shijiang,27.0819,110.7933,88.2,66,86,5.95,CN,1690433694
361,novyy urgal,51.0736,132.5642,83.89,46,11,4.97,RU,1690433694
362,namibe,-15.1961,12.1522,58.86,90,70,5.26,AO,1690433694
363,dabakala,8.3667,-4.4333,71.85,99,62,5.32,CI,1690433694
364,ban na san,8.8004,99.3637,85.62,70,98,7.49,TH,1690433695
365,alice,27.7523,-98.0697,82.56,74,0,14.97,US,1690433695
366,sodo,6.8642,37.7628,57.83,92,96,2.3,ET,1690433695
367,romanovo,52.6182,81.2271,82.33,28,100,6.8,RU,1690433695
368,red hill,33.9996,-79.2581,77.18,82,32,5.79,US,1690433695
369,shahr-e babak,30.1165,55.1186,86.11,33,4,9.1,IR,1690433695
370,bratsk,56.1325,101.6142,72.09,71,43,6.08,RU,1690433489
371,bou arada,36.3525,9.6218,69.93,72,0,3.27,TN,1690433696
372,coruripe,-10.1256,-36.1756,70.97,85,36,2.08,BR,1690433696
373,ancud,-41.8697,-73.8203,46.53,95,100,6.76,CL,1690433696
374,tralee,52.2704,-9.7026,59.95,99,100,5.88,IE,1690433416
375,ambon,-3.6954,128.1814,80.74,95,40,5.75,ID,1690433570
376,geisenheim,49.9833,7.9667,61.65,89,100,3.15,DE,1690433696
377,monrovia,6.3005,-10.7969,76.77,90,76,4.21,LR,1690433697
378,dourbali,11.8091,15.8632,75.56,79,99,10.69,TD,1690433697
379,rawson,-43.3002,-65.1023,39.15,71,85,1.59,AR,1690433697
380,port douglas,-16.4833,145.4667,71.78,81,59,17.45,AU,1690433697
381,bathsheba,13.2167,-59.5167,81.21,90,40,18.41,BB,1690433697
382,seven pagodas,12.6264,80.1722,89.65,56,98,18.12,IN,1690433698
383,aras-asan,8.8908,126.3033,86.18,66,100,4.81,PH,1690433698
384,kajaani,64.2273,27.7285,62.65,82,0,2.3,FI,1690433698
385,narasapur,16.45,81.6667,80.19,84,100,18.01,IN,1690433698
386,malaga,36.7202,-4.4203,76.73,80,20,4.61,ES,1690433540
387,palasa,18.7667,84.4167,85.01,81,77,15.08,IN,1690433699
388,valparaiso,-33.0393,-71.6273,57.99,65,0,4.61,CL,1690433699
389,san juan,-31.5375,-68.5364,51.51,51,96,1.57,AR,1690433407
390,nago,26.5881,127.9761,81.45,94,100,15.75,JP,1690433700
391,nacala,-14.5428,40.6728,67.06,78,33,9.8,MZ,1690433701
392,pimentel,-6.8367,-79.9342,71.89,78,0,12.66,PE,1690433701
393,tidjikja,18.5564,-11.4271,82.87,47,24,18.05,MR,1690433701
394,fort st. john,56.2499,-120.8529,58.89,94,100,9.22,CA,1690433701
395,richards bay,-28.783,32.0377,60.89,71,0,9.57,ZA,1690433703
396,tamuin,21.9833,-98.75,75.56,88,29,2.37,MX,1690433703
397,zholymbet,51.7433,71.7122,72.37,58,34,7.0,KZ,1690433703
398,kourou,5.1552,-52.6478,77.05,92,81,6.29,GF,1690433620
399,gafsa,34.425,8.7842,77.22,57,0,12.66,TN,1690433704
400,mount isa,-20.7333,139.5,80.37,50,6,12.66,AU,1690433569
401,baissa,7.2333,10.6333,71.62,96,79,2.06,NG,1690433704
402,zhezqazghan,47.7833,67.7667,75.78,46,20,11.18,KZ,1690433644
403,tazovsky,67.4667,78.7,67.87,65,11,3.2,RU,1690433705
404,tual,-5.6667,132.75,78.91,82,65,18.7,ID,1690433706
405,carnarvon,-24.8667,113.6333,65.5,46,12,15.82,AU,1690433706
406,oamaru,-45.0784,170.9801,46.38,65,5,27.63,NZ,1690433706
407,mwinilunga,-11.7358,24.4293,51.87,57,64,3.91,ZM,1690433707
408,neelankarai,12.9455,80.2575,89.65,62,40,17.27,IN,1690433707
409,brooks,50.5834,-111.8851,60.78,59,8,14.97,CA,1690433708
410,nema,57.5067,50.5011,72.9,71,47,11.7,RU,1690433708
411,east ballina,-28.8667,153.5833,67.8,53,9,5.73,AU,1690433708
412,pointe aux piments,-20.0628,57.5131,74.52,73,25,7.2,MU,1690433709
413,brejo da madre de deus,-8.1458,-36.3711,60.03,97,12,3.94,BR,1690433709
414,maturin,9.75,-63.1767,76.84,100,85,3.44,VE,1690433709
415,chibougamau,49.9168,-74.3659,64.02,72,100,5.55,CA,1690433709
416,borcka,41.3632,41.6765,77.36,52,13,3.0,TR,1690433710
417,timbuktu,16.7735,-3.0074,90.9,35,94,9.44,ML,1690433710
418,ulsteinvik,62.3432,5.8487,60.91,94,99,5.99,NO,1690433710
419,sittwe,20.15,92.9,84.2,81,97,11.68,MM,1690433710
420,zhob,31.3411,69.4481,80.96,58,14,2.68,PK,1690433711
421,prince rupert,54.3161,-130.3201,60.49,90,0,10.36,CA,1690433712
422,bom jesus,-9.0744,-44.3586,66.97,59,56,0.87,BR,1690433713
423,cidreira,-30.1811,-50.2056,56.41,84,32,12.17,BR,1690433714
424,arkhangel'sk,64.5401,40.5433,62.35,75,100,2.53,RU,1690433716
425,inirida,3.8653,-67.9239,74.14,92,76,1.41,CO,1690433717
426,oil city,41.4339,-79.7064,72.36,98,75,9.22,US,1690433717
427,banket,-17.3833,30.4,51.1,93,0,4.36,ZW,1690433717
428,dudinka,69.4058,86.1778,81.63,50,75,6.31,RU,1690433718
429,kimbe,-5.5502,150.1429,85.57,67,89,10.18,PG,1690433718
430,kukawa,12.9234,13.5606,82.38,58,80,9.55,NG,1690433718
431,cabo san lucas,22.8909,-109.9124,86.61,78,51,4.0,MX,1690433718
432,egilsstadir,65.2653,-14.3948,42.71,93,100,12.66,IS,1690433422
433,saint-francois,46.4154,3.9054,58.68,77,100,5.75,FR,1690433680
434,boyolangu,-8.1181,111.8935,83.98,100,58,9.62,ID,1690433719
435,n'zeto,-7.2312,12.8666,67.69,94,4,7.61,AO,1690433719
436,ushibukamachi,32.1906,130.0228,85.08,71,3,7.85,JP,1690433719
437,talcahuano,-36.7167,-73.1167,46.08,100,75,0.0,CL,1690433716
438,castillos,-34.1667,-53.8333,47.57,87,3,11.81,UY,1690433720
439,arteche,12.2645,125.4048,88.7,62,98,6.67,PH,1690433720
440,isangel,-19.55,169.2667,71.62,58,47,17.25,VU,1690433720
441,bekes,46.75,21.0,56.98,77,66,8.01,HU,1690433721
442,ibanda,-2.7974,32.4746,62.8,53,47,8.75,TZ,1690433721
443,bahia honda,22.9036,-83.1592,80.74,82,27,11.14,CU,1690433721
444,moorhead,46.8739,-96.7676,87.76,58,0,13.8,US,1690433627
445,carbonear,47.7332,-53.2148,66.04,90,61,10.87,CA,1690433721
446,mounana,-1.4085,13.1586,69.89,87,37,1.63,GA,1690433722
447,harper,4.375,-7.7169,76.1,89,99,8.19,LR,1690433722
448,churapcha,62.0025,132.4325,74.73,35,50,8.66,RU,1690433723
449,vernon,50.2581,-119.2691,70.16,52,1,4.61,CA,1690433723
450,bandiagara,14.3501,-3.6104,84.7,54,100,11.61,ML,1690433723
451,goure,13.9835,10.2704,86.52,48,99,9.33,NE,1690433723
452,cameron park,38.6688,-120.9872,78.06,49,0,4.88,US,1690433724
453,abadan,30.3392,48.3043,96.75,17,0,4.61,IR,1690433445
454,trenggalek,-8.05,111.7167,83.75,100,69,7.36,ID,1690433724
455,omdurman,15.6445,32.4777,82.92,57,89,15.86,SD,1690433724
456,kutulik,53.3508,102.7839,71.55,64,55,11.63,RU,1690433724
457,howard springs,-12.497,131.047,82.31,29,100,2.46,AU,1690433725
458,totness,5.8833,-56.3167,77.47,90,65,7.54,SR,1690433725
459,vadso,70.0744,29.7487,50.16,93,100,9.22,NO,1690433725
460,san jose del guaviare,2.5729,-72.6459,75.24,88,100,1.39,CO,1690433726
461,tabou,4.423,-7.3528,75.79,90,99,7.02,CI,1690433726
462,fort mcmurray,56.7268,-111.381,58.59,94,100,5.75,CA,1690433726
463,thinadhoo,0.5333,72.9333,83.93,76,90,13.69,MV,1690433726
464,la'ie,21.6477,-157.9253,84.16,75,15,8.99,US,1690433727
465,sydney,-33.8679,151.2073,71.62,63,0,6.91,AU,1690433727
466,monastyryshche,48.9909,29.8047,65.12,94,100,7.27,UA,1690433727
467,itoman,26.1247,127.6694,82.42,88,75,18.41,JP,1690433728
468,galliano,29.4422,-90.2992,79.0,71,0,5.93,US,1690433728
469,beyneu,45.3167,55.2,88.54,26,0,13.11,KZ,1690433728
470,al faw,29.9776,48.4741,96.8,19,0,10.65,IQ,1690433728
471,bechar,31.6167,-2.2167,93.52,13,20,9.22,DZ,1690433671
472,gorontalo,0.5412,123.0595,86.16,63,86,9.55,ID,1690433729
473,vodnyy,63.5046,53.4095,67.01,54,99,3.69,RU,1690433729
474,iskateley,67.6803,53.1512,69.33,58,90,5.46,RU,1690433730
475,howrah,22.5892,88.3103,87.8,79,40,5.75,IN,1690433457
476,laurentides,46.4334,-74.9826,64.71,99,100,2.42,CA,1690433730
477,ravar,31.2656,56.8055,90.48,14,2,4.9,IR,1690433730
478,mana,5.6592,-53.7767,76.82,88,100,6.58,GF,1690433731
479,portage la prairie,49.9728,-98.2926,67.93,64,11,3.0,CA,1690433606
480,tolanaro,-25.0319,46.9987,64.47,77,75,6.91,MG,1690433692
481,leh,34.1667,77.5833,67.24,43,4,4.36,IN,1690433732
482,nasirabad,26.3,74.7333,82.72,77,100,9.48,IN,1690433732
483,polyarnyy,69.1989,33.4478,51.71,93,100,1.3,RU,1690433732
484,omagari,39.45,140.4833,86.76,65,54,10.36,JP,1690433733
485,pathein,16.7833,94.7333,88.34,66,40,15.1,MM,1690433733
486,kittila,67.6647,24.8936,57.61,94,0,0.0,FI,1690433733
487,dalby,-27.1833,151.2667,69.1,35,0,9.35,AU,1690433734
488,kuta,-8.7233,115.1723,82.35,69,20,16.11,ID,1690433539
489,ghat,24.9647,10.1728,83.55,12,2,0.51,LY,1690433734
490,yingshang chengguanzhen,32.6295,116.2701,93.22,58,12,10.27,CN,1690433734
491,junagarh,19.8667,82.9333,80.51,87,86,2.42,IN,1690433735
492,pokhara,28.2333,83.9833,83.32,62,88,4.85,NP,1690433463
493,rio gallegos,-51.6226,-69.2181,15.85,86,0,5.75,AR,1690433735
494,qurayyat,31.3318,37.3428,75.38,31,0,4.61,SA,1690433735
495,ma'an,26.9775,110.7211,88.52,64,88,7.11,CN,1690433735
496,troitsko-pechorsk,62.7084,56.1964,69.76,49,14,4.09,RU,1690433736
497,suva,-18.1416,178.4415,67.48,94,100,5.75,FJ,1690433504
498,halifax,44.6453,-63.5724,68.68,89,51,17.27,CA,1690433513
499,aitape,-3.1374,142.3475,82.27,80,95,1.14,PG,1690433737
500,tynda,55.1667,124.7167,82.27,46,25,4.76,RU,1690433737
501,abashiri,44.0213,144.2697,89.89,55,75,9.22,JP,1690433671
502,tarauaca,-8.1614,-70.7656,74.73,60,35,2.39,BR,1690433620
503,tobelo,1.7284,128.0095,85.62,69,40,6.38,ID,1690433738
504,tambopata,-12.7333,-69.1833,75.09,70,83,1.63,PE,1690433738
505,codrington,-38.2667,141.9667,60.69,64,25,17.4,AU,1690433738
506,san pablo huixtepec,16.8333,-96.7667,63.66,77,89,4.74,MX,1690433739
507,alaghsas,17.0187,8.0168,86.81,45,91,13.31,NE,1690433739
508,karratha,-20.7377,116.8463,75.79,39,76,12.62,AU,1690433673
509,shizuishan,39.2333,106.7694,84.36,37,100,16.44,CN,1690433514
510,lautoka,-17.6167,177.4667,69.66,83,100,9.22,FJ,1690433739
511,vilyuysk,63.7553,121.6247,75.42,28,76,6.8,RU,1690433740
512,hopkinton,41.4612,-71.7776,74.68,93,0,3.44,US,1690433740
513,russellville,35.2784,-93.1338,84.34,67,0,3.44,US,1690433740
514,anqing,30.5092,117.0506,95.45,51,6,7.81,CN,1690433482
515,noumea,-22.2763,166.4572,71.58,65,39,17.29,NC,1690433615
516,morant bay,17.8815,-76.4093,82.02,83,86,7.23,JM,1690433740
517,dereli,40.7378,38.4493,71.76,45,0,6.35,TR,1690433740
518,yuzhno-kurilsk,44.0306,145.8556,72.1,80,98,2.86,RU,1690433565
519,maragogi,-9.0122,-35.2225,73.71,86,68,3.83,BR,1690433741
520,varennes-vauzelles,47.0168,3.1404,60.31,97,33,5.99,FR,1690433741
521,cannonvale,-20.2833,148.7,69.19,63,56,18.05,AU,1690433741
522,litochoro,40.1006,22.4978,70.68,48,21,3.04,GR,1690433741
523,marsabit,2.3284,37.9899,62.22,67,31,19.84,KE,1690433741
524,dossor,47.5272,52.9811,87.48,30,0,6.78,KZ,1690433741
525,kavarna,43.4333,28.3333,67.57,85,76,20.24,BG,1690433742
526,raduzhny,62.0961,77.475,68.94,70,56,7.0,RU,1690433742
527,somerset east,-32.7217,25.588,49.03,91,24,1.16,ZA,1690433742
528,biloela,-24.4167,150.5,73.65,36,2,12.37,AU,1690433742
529,antalaha,-14.9003,50.2788,71.56,82,36,11.77,MG,1690433742
530,jieyang,23.5289,116.3642,93.13,66,83,9.8,CN,1690433743
531,sinabang,2.4803,96.3801,85.24,69,83,4.14,ID,1690433552
532,ormara,25.2088,64.6357,83.46,86,99,15.43,PK,1690433743
533,iwon-up,40.3231,128.6553,84.56,65,60,5.82,KP,1690433743
534,cabras,39.93,8.5314,66.38,69,2,5.03,IT,1690433743
535,kavieng,-2.5744,150.7967,83.82,75,70,11.86,PG,1690433743
536,wakkanai,45.4094,141.6739,78.78,78,40,16.11,JP,1690433594
537,waterford,42.7023,-83.4027,69.84,96,75,4.61,US,1690433744
538,kaseda-shirakame,31.4167,130.3167,88.25,66,17,11.56,JP,1690433744
539,katsuura,35.1333,140.3,84.04,70,45,10.76,JP,1690433744
540,harstad,68.799,16.5293,59.81,90,67,4.54,NO,1690433744
541,nelidovo,56.2211,32.7774,61.02,88,85,1.5,RU,1690433745
542,barra de santo antonio,-9.4047,-35.5072,69.08,84,62,2.62,BR,1690433745
543,puerto cabezas,14.0351,-83.3888,78.33,86,100,7.54,NI,1690433745
544,tai'an,36.1853,117.12,90.46,50,17,5.5,CN,1690433745
545,pimenta bueno,-11.6725,-61.1936,71.22,54,38,2.62,BR,1690433745
546,metlili chaamba,32.2667,3.6333,86.94,19,0,0.0,DZ,1690433745
547,villa emilio carranza,19.9667,-96.6,79.23,81,100,4.7,MX,1690433746
548,loukhi,66.0764,33.0381,59.34,77,16,1.39,RU,1690433746
549,belmonte,-15.8631,-38.8828,72.27,72,51,6.17,BR,1690433558
550,karagandy,49.8019,73.1021,73.35,39,9,14.25,KZ,1690433746
551,akrehamn,59.2667,5.1833,57.45,94,75,4.61,NO,1690433746
552,friesoythe,53.0167,7.85,57.27,90,100,10.27,DE,1690433746
553,urussu,54.5981,53.4631,78.89,50,8,11.01,RU,1690433746
554,el nido,11.1858,119.3956,85.01,74,98,23.55,PH,1690433747
555,kirensk,57.7853,108.1119,81.48,52,94,3.4,RU,1690433747
556,palmer,42.1584,-72.3287,74.01,76,0,8.05,US,1690433747
557,mawu,29.5923,107.3139,75.54,93,100,1.57,CN,1690433747
558,ceylanpinar,36.8472,40.05,94.89,12,0,4.07,TR,1690433566
559,kijang,35.2442,129.2139,91.13,67,25,9.84,KR,1690433747
560,gisborne,-38.6533,178.0042,49.86,75,67,9.4,NZ,1690433748
561,hotan,37.0997,79.9269,90.68,22,61,5.08,CN,1690433748
562,yarmouth,41.7057,-70.2286,75.0,90,0,10.36,US,1690433657
563,akdepe,42.0551,59.3788,82.49,33,62,10.45,TM,1690433748
564,abomey-calavi,6.4485,2.3557,78.66,89,75,11.5,BJ,1690433749
565,sao joao da barra,-21.6403,-41.0511,70.7,87,94,12.97,BR,1690433643
566,rabigh,22.7986,39.0349,93.56,38,48,8.08,SA,1690433749
567,callao,-12.0667,-77.15,68.29,77,100,6.91,PE,1690433454
568,hadibu,12.65,54.0333,78.94,72,75,34.9,YE,1690433563
569,sitia,35.2,26.0986,86.81,49,0,0.54,GR,1690433750
570,taro,-8.3862,115.28,75.2,53,33,5.91,ID,1690433750
571,meadow lake,34.8014,-106.5436,80.08,52,81,7.61,US,1690433751
